[{
    "type": "Feature",
    "properties": {"LocationType": "Safe Location",
					"Location": "Napier Girls High School",
					"Information": "Some shelter, toilets and eating areas."},
    "geometry": {
        "type": "Point",
        "coordinates":
            [176.914495, -39.485411]
    }
}, {
    "type": "Feature",
    "properties": {"LocationType": "Safe Location",
					"Location": "EIT",
					"Information": "Some shelter, toilets and eating areas."},
    "geometry": {
        "type": "Point",
        "coordinates":
            [176.840037, -39.546497]
    }
}, {
    "type": "Feature",
    "properties": {"LocationType": "Hazard",
					"Location": "Breakwater Road",
					"Information": "Possible Rockfall"},
    "geometry": {
        "type": "Point",
        "coordinates":
            [176.920922, -39.482034]
    }
}, {
    "type": "Feature",
    "properties": {"LocationType": "Safe Location",
					"Location": "Hawke's Bay Sports Park",
					"Information": "Some shelter, toilets and large grassed area."},
    "geometry": {
        "type": "Point",
        "coordinates":
            [176.836138, -39.610543]
    }
}, {
    "type": "Feature",
    "properties": {"LocationType": "Safe Location",
					"Location": "Bluff Hill Lookout",
					"Information": "No shelter, no toilets and small grassed area."},
    "geometry": {
        "type": "Point",
        "coordinates":
            [176.917493, -39.478904]
    }
}, {
    "type": "Feature",
    "properties": {"LocationType": "Safe Location",
					"Location": "Napier Central School",
					"Information": "Some shelter, toilets and eating areas."},
    "geometry": {
        "type": "Point",
        "coordinates":
            [176.908803, -39.489446]
    }
}, {
    "type": "Feature",
    "properties": {"LocationType": "Safe Location",
					"Location": "Napier Botanical Gardens",
					"Information": "No shelter, no toilets and small grassed area."},
    "geometry": {
        "type": "Point",
        "coordinates":
            [176.900801, -39.490313]
    }
}, {
    "type": "Feature",
    "properties": {"LocationType": "Safe Location",
					"Location": "Taradale High School",
					"Information": "Some shelter, toilets and eating areas."},
    "geometry": {
        "type": "Point",
        "coordinates":
            [176.851445, -39.543369]
    }
}]
